City_ID,City,Lat,Lng,Max Temp,Humidity,Cloudiness,Wind Speed,Country,Date
0,paoua,7.2427,16.4406,70.65,88,67,3.71,CF,1689804223
1,blackmans bay,-43.0167,147.3167,45.73,74,100,13.94,AU,1689804223
2,arawa,-6.2132,155.5367,81.37,77,75,4.27,PG,1689804223
3,puerto natales,-51.7236,-72.4875,32.2,92,100,2.26,CL,1689804223
4,la passe,45.5549,-0.8967,64.98,88,17,8.1,FR,1689804223
5,waitangi,-43.9535,-176.5597,55.81,91,84,5.01,NZ,1689804223
6,bandarbeyla,9.4942,50.8122,74.79,82,83,29.66,SO,1689804223
7,tazacorte,28.629,-17.9293,73.15,92,75,14.97,ES,1689804223
8,edinburgh of the seven seas,-37.0676,-12.3116,56.52,85,100,18.61,SH,1689804224
9,pokhara,28.2333,83.9833,74.19,77,85,3.67,NP,1689804112
10,chonchi,-42.6128,-73.8092,53.11,97,100,6.73,CL,1689804046
11,kamogawa,35.1,140.1,80.56,92,44,11.07,JP,1689804143
12,papatowai,-46.5619,169.4708,42.93,74,85,8.43,NZ,1689804224
13,nizhniy kuranakh,58.8353,125.4869,51.31,98,100,6.33,RU,1689804105
14,beyneu,45.3167,55.2,78.15,40,2,7.85,KZ,1689804224
15,kruisfontein,-34.0033,24.7314,46.89,75,72,2.55,ZA,1689804224
16,bethel,41.3712,-73.414,81.39,66,83,2.73,US,1689803969
17,vernon,50.2581,-119.2691,93.76,17,70,1.01,CA,1689804224
18,greenwood,34.1668,-82.1165,87.82,62,94,9.78,US,1689804225
19,puerto aysen,-45.4,-72.7,45.75,100,100,5.66,CL,1689804007
20,port-aux-francais,-49.35,70.2167,37.62,85,100,21.36,TF,1689804225
21,sydney,-33.8679,151.2073,43.9,82,0,10.36,AU,1689804225
22,coquimbo,-29.9533,-71.3436,64.35,60,100,1.45,CL,1689804116
23,morinville,53.8001,-113.652,77.49,36,15,7.72,CA,1689804202
24,ushuaia,-54.8,-68.3,29.55,94,100,4.83,AR,1689804172
25,namibe,-15.1961,12.1522,61.93,87,0,4.21,AO,1689804225
26,hwange,-18.3693,26.5019,57.67,41,0,1.83,ZW,1689804225
27,hasaki,35.7333,140.8333,77.4,88,94,12.57,JP,1689804225
28,talnakh,69.4865,88.3972,53.26,65,83,6.93,RU,1689804225
29,anadyr,64.75,177.4833,61.3,72,75,13.42,RU,1689804226
30,fale old settlement,-9.3852,-171.2468,83.12,77,32,14.61,TK,1689804226
31,hermanus,-34.4187,19.2345,51.03,70,51,10.22,ZA,1689804226
32,puerto baquerizo moreno,-0.9,-89.6,81.59,78,20,6.91,EC,1689804226
33,kodiak,57.79,-152.4072,54.91,94,100,0.0,US,1689804226
34,yanam,16.7333,82.2167,78.67,78,100,10.2,IN,1689804226
35,ambon,-3.6954,128.1814,75.34,94,40,4.61,ID,1689803936
36,nuuk,64.1835,-51.7216,47.01,100,75,12.66,GL,1689804226
37,port elizabeth,-33.918,25.5701,49.1,93,75,10.36,ZA,1689804029
38,praia da vitoria,38.7333,-27.0667,72.75,85,100,3.65,PT,1689804226
39,harstad,68.799,16.5293,52.99,100,100,7.0,NO,1689804227
40,romanovo,52.6182,81.2271,70.97,57,100,3.62,RU,1689804227
41,aasiaat,68.7098,-52.8699,41.16,99,100,0.74,GL,1689804227
42,palm valley,30.1775,-81.3876,98.06,73,48,12.75,US,1689804201
43,tazovsky,67.4667,78.7,59.4,92,100,10.87,RU,1689804227
44,abu al matamir,30.9102,30.1744,78.62,62,0,2.73,EG,1689804053
45,albany,42.6001,-73.9662,82.33,64,24,3.31,US,1689804227
46,atafu village,-8.5421,-172.5159,83.66,77,62,16.28,TK,1689804228
47,margaret river,-33.95,115.0667,54.95,72,95,11.88,AU,1689804228
48,yellowknife,62.456,-114.3525,79.56,35,72,9.55,CA,1689804228
49,veseloyarsk,51.2836,81.1056,72.91,44,100,4.16,RU,1689804228
50,georgetown,5.4112,100.3354,80.53,78,20,0.0,MY,1689804035
51,geraldton,-28.7667,114.6,48.61,81,100,11.5,AU,1689804228
52,tateyama,34.9833,139.8667,80.53,91,31,8.01,JP,1689804228
53,college,64.8569,-147.8028,71.08,74,75,0.0,US,1689804228
54,bubaque,11.2833,-15.8333,80.83,82,71,14.92,GW,1689804228
55,adamstown,-25.066,-130.1015,72.21,85,100,25.17,PN,1689804229
56,skelleftea,64.7507,20.9528,57.56,100,100,5.75,SE,1689804204
57,afaahiti,-17.75,-149.2833,73.27,94,45,23.09,PF,1689804229
58,saint-pierre,-21.3393,55.4781,69.48,73,0,8.05,RE,1689804229
59,queenstown,-31.8976,26.8753,38.73,83,48,2.84,ZA,1689804229
60,kiunga,-6.1219,141.2906,72.36,94,96,3.06,PG,1689804229
61,alice springs,-23.7,133.8833,44.15,87,75,4.61,AU,1689804229
62,bengkulu,-3.8004,102.2655,74.7,92,100,7.61,ID,1689804229
63,puerto ayora,-0.7393,-90.3518,85.96,91,19,8.99,EC,1689804229
64,onega,63.9061,38.1404,56.75,97,83,3.06,RU,1689804229
65,muisne,0.6,-80.0333,80.64,83,59,7.78,EC,1689804230
66,nova sintra,14.8667,-24.7167,73.26,83,96,10.18,CV,1689804230
67,valognes,49.5088,-1.4705,58.39,94,0,8.05,FR,1689804230
68,pasuquin,18.3328,120.6177,78.85,85,81,4.85,PH,1689804230
69,copiapo,-27.3667,-70.3333,56.89,23,100,2.82,CL,1689804230
70,invercargill,-46.4,168.35,41.54,82,63,7.65,NZ,1689804230
71,wichita falls,33.9137,-98.4934,109.54,18,0,18.01,US,1689804230
72,keflavik,64.0049,-22.5624,52.23,87,75,9.22,IS,1689804116
73,grytviken,-54.2811,-36.5092,31.44,84,68,12.39,GS,1689804231
74,kandete,-9.15,33.8,54.93,80,78,1.43,TZ,1689804231
75,tadine,-21.55,167.8833,71.51,83,92,8.59,NC,1689804231
76,miquelon,47.0975,-56.3814,64.4,100,93,12.59,PM,1689804231
77,port lincoln,-34.7333,135.8667,55.45,72,96,19.28,AU,1689804231
78,brookings,44.3114,-96.7984,85.17,53,0,13.8,US,1689804231
79,nadym,65.5333,72.5167,65.95,88,99,9.69,RU,1689804216
80,south hedland,-20.4089,118.5983,57.13,54,52,9.22,AU,1689804231
81,polillo,14.7122,121.9392,78.44,89,91,6.82,PH,1689804231
82,changde,29.0464,111.6783,76.66,95,98,4.03,CN,1689804231
83,yala,6.3333,101.25,73.15,96,100,2.89,TH,1689804232
84,amlapura,-8.45,115.6167,75.61,70,52,11.41,ID,1689804232
85,santo angelo,-28.2992,-54.2631,59.29,86,74,9.53,BR,1689804232
86,zhanibek,49.4167,46.85,66.18,63,14,4.97,KZ,1689804232
87,mafinga,-7.25,35.0667,66.47,60,9,5.35,TZ,1689804232
88,vilyuchinsk,52.9306,158.4028,57.47,91,86,4.97,RU,1689804232
89,pontianak,-0.0333,109.3333,73.38,100,100,1.14,ID,1689804017
90,chulakkurgan,43.765,69.1814,74.7,31,0,7.18,KZ,1689804232
91,awjilah,29.1081,21.2869,85.06,45,0,4.94,LY,1689804233
92,bei'an,24.5399,109.533,76.05,95,98,1.48,CN,1689804233
93,malvan,16.0667,73.4667,79.25,85,100,17.6,IN,1689804233
94,bilibino,68.0546,166.4372,59.76,85,96,5.97,RU,1689804233
95,brak,27.5496,14.2714,87.6,24,0,7.61,LY,1689804233
96,dampit,-8.2116,112.7493,64.45,86,18,5.53,ID,1689804233
97,sterling,39.0062,-77.4286,91.0,62,75,5.75,US,1689804233
98,olonkinbyen,70.9221,-8.7187,40.82,91,81,9.73,SJ,1689804233
99,badger,64.8,-147.5333,70.99,73,75,0.0,US,1689804234
100,wailua homesteads,22.0669,-159.378,79.59,84,100,18.41,US,1689804234
101,saint-joseph,-21.3667,55.6167,68.38,85,25,10.36,RE,1689804234
102,la gi,10.6667,107.7833,76.53,93,99,12.06,VN,1689804234
103,altentreptow,53.6833,13.25,55.62,85,93,1.54,DE,1689804234
104,tiksi,71.6872,128.8694,53.24,76,94,6.73,RU,1689804234
105,taulaga,-11.0553,-171.0883,82.8,75,67,12.93,AS,1689804234
106,happy valley-goose bay,53.3168,-60.3315,68.31,88,75,5.75,CA,1689804235
107,naze,28.3667,129.4833,78.85,85,97,10.02,JP,1689804235
108,obock,12.25,43.0833,87.84,27,98,14.85,DJ,1689804235
109,longyearbyen,78.2186,15.6401,51.64,62,0,5.75,SJ,1689804235
110,sao tome,0.3365,6.7273,76.08,87,63,9.48,ST,1689804235
111,flying fish cove,-10.4217,105.6791,74.88,78,75,14.97,CX,1689804235
112,harper,4.375,-7.7169,77.04,87,100,11.56,LR,1689804235
113,stanley,54.868,-1.6985,54.77,93,20,3.44,GB,1689804236
114,kamennogorsk,60.9545,29.1339,61.52,72,94,5.01,RU,1689804236
115,yangjiang,21.85,111.9667,78.17,92,94,5.23,CN,1689804178
116,gamba,-2.65,10.0,72.03,83,98,5.5,GA,1689804236
117,hlukhiv,51.6782,33.9162,58.46,68,78,6.11,UA,1689804236
118,punta arenas,-53.15,-70.9167,35.19,66,100,4.25,CL,1689804236
119,bikenibeu village,1.3673,173.1241,87.76,70,40,10.36,KI,1689804236
120,zouerate,22.7187,-12.4521,99.41,19,7,18.61,MR,1689804236
121,remire-montjoly,4.9167,-52.2667,82.44,78,75,4.61,GF,1689804236
122,pisco,-13.7,-76.2167,69.85,68,40,9.22,PE,1689804237
123,kuanda,56.3161,116.0806,51.12,83,81,2.1,RU,1689804237
124,champerico,14.3,-91.9167,86.83,68,27,8.48,GT,1689804237
125,changping,40.2186,116.2197,76.64,36,97,1.97,CN,1689804090
126,hamilton,39.1834,-84.5333,84.42,77,0,8.05,US,1689804237
127,prado,-17.3411,-39.2208,71.37,82,14,6.73,BR,1689804237
128,nagqu,31.5,92.0,34.84,86,15,3.09,CN,1689804142
129,west island,-12.1568,96.8225,76.98,78,75,17.27,CC,1689804237
130,lihue,21.9789,-159.3672,80.19,84,100,18.41,US,1689804237
131,necochea,-38.5473,-58.7368,47.12,65,99,14.47,AR,1689803945
132,karratha,-20.7377,116.8463,62.29,65,29,10.49,AU,1689804238
133,saryaghash,41.45,69.1667,82.33,31,18,7.65,KZ,1689804238
134,udachny,66.4167,112.4,62.2,71,48,11.14,RU,1689804238
135,san pedro,14.35,121.0167,79.2,95,100,1.99,PH,1689804238
136,petropavlovsk-kamchatsky,53.0452,158.6483,55.99,100,100,6.71,RU,1689804033
137,lompoc,34.6391,-120.4579,92.79,72,75,9.22,US,1689804238
138,codrington,-38.2667,141.9667,49.6,53,100,25.64,AU,1689804238
139,san antonio oeste,-40.7319,-64.9477,54.63,50,100,24.58,AR,1689804238
140,saudarkrokur,65.7461,-19.6394,45.73,82,40,1.81,IS,1689804238
141,kingscliff,-28.2667,153.5667,57.76,62,0,5.75,AU,1689804239
142,nacozari viejo,30.4,-109.65,99.97,17,0,4.18,MX,1689804135
143,isafjordur,66.0755,-23.124,49.62,74,84,3.04,IS,1689803947
144,arraial do cabo,-22.9661,-42.0278,67.86,88,100,11.5,BR,1689804239
145,nar'yan-mar,67.6713,53.087,55.81,83,13,11.59,RU,1689804239
146,lorengau,-2.0226,147.2712,82.11,74,68,5.7,PG,1689804239
147,hawaiian paradise park,19.5933,-154.9731,81.91,95,100,14.97,US,1689804239
148,kodinsk,58.6881,99.1844,56.98,65,2,0.85,RU,1689804240
149,avarua,-21.2078,-159.775,71.65,53,75,6.91,CK,1689804240
150,kani keli,-12.9536,45.1033,76.26,68,29,9.95,YT,1689804240
151,vorgashor,67.5833,63.95,60.26,85,80,5.48,RU,1689804240
152,wewak,-3.5534,143.6268,79.07,86,20,4.18,PG,1689804240
153,yurgamysh,55.3714,64.4656,58.32,93,36,4.9,RU,1689804058
154,ribeira grande,38.5167,-28.7,71.78,87,100,3.0,PT,1689804241
155,abong mbang,3.9833,13.1833,68.18,99,99,2.82,CM,1689804241
156,aykhal,66.0,111.5,59.99,78,54,9.46,RU,1689804241
157,la'ie,21.6477,-157.9253,85.96,79,61,11.01,US,1689804241
158,hun,29.1268,15.9477,85.53,39,0,10.18,LY,1689804241
159,northam,51.0333,-4.2167,59.61,87,2,7.18,GB,1689804241
160,bria,6.5423,21.9863,70.39,96,100,1.7,CF,1689804241
161,east london,-33.0153,27.9116,52.68,74,95,8.9,ZA,1689804036
162,dazhou,31.2159,107.5009,73.0,97,87,1.61,CN,1689804136
163,ixtapa,20.7,-105.2,93.22,70,40,13.8,MX,1689804241
164,mareeba,-17.0,145.4333,67.48,88,88,2.77,AU,1689804242
165,weno,7.4515,151.8468,83.53,77,100,9.31,FM,1689804242
166,utrik,11.2278,169.8474,83.43,81,100,19.95,MH,1689804242
167,egilsstadir,65.2653,-14.3948,42.98,91,54,6.64,IS,1689804242
168,dryden,49.7833,-92.7503,61.09,100,100,8.05,CA,1689804242
169,pudozh,61.8099,36.5345,56.57,99,100,7.43,RU,1689804242
170,ta`u,-14.2336,-169.5144,80.13,76,94,24.79,AS,1689804243
171,torghay,49.6339,63.4981,69.01,59,0,9.84,KZ,1689804010
172,mombetsu,44.3525,143.3525,65.12,87,14,3.15,JP,1689804243
173,scarborough,54.2797,-0.4044,55.78,89,57,1.01,GB,1689804243
174,erie,42.7667,-78.6664,80.1,48,39,6.6,US,1689804243
175,cacador,-26.7753,-51.015,48.25,96,100,6.02,BR,1689804243
176,new norfolk,-42.7826,147.0587,46.92,81,100,3.69,AU,1689804243
177,jijiang,29.2906,106.2542,74.12,98,100,1.92,CN,1689804243
178,corner brook,48.9667,-57.9484,72.5,98,78,3.69,CA,1689804243
179,belmonte,-15.8631,-38.8828,72.7,75,20,8.66,BR,1689804243
180,solnechnyy,50.7214,136.6319,75.85,56,70,2.42,RU,1689804244
181,hadibu,12.65,54.0333,77.31,80,93,21.05,YE,1689803988
182,mahina,-17.5065,-149.489,74.97,94,75,27.63,PF,1689804244
183,wabu,37.5897,127.2203,74.82,86,0,1.36,KR,1689804244
184,iskateley,67.6803,53.1512,55.71,83,13,11.5,RU,1689804244
185,ancud,-41.8697,-73.8203,52.36,95,100,10.96,CL,1689804244
186,el salto,20.3333,-104.5,84.42,42,92,2.8,MX,1689804244
187,whitehorse,60.7161,-135.0538,75.09,33,67,8.23,CA,1689804244
188,wynyard,-41.0,145.7167,50.97,81,100,15.9,AU,1689804244
189,klyuchi,52.2667,79.1667,72.43,58,100,3.18,RU,1689804245
190,isla del bosque,22.7333,-105.85,91.06,63,13,13.11,MX,1689804245
191,dukhan,25.4297,50.7858,92.17,59,56,8.59,QA,1689804136
192,st. john's,47.5649,-52.7093,78.15,87,75,16.11,CA,1689804245
193,uturoa,-16.7333,-151.4333,76.44,87,96,18.45,PF,1689804245
194,kirensk,57.7853,108.1119,58.55,75,99,1.57,RU,1689804245
195,iqaluit,63.7506,-68.5145,38.93,100,100,8.05,CA,1689804245
196,muzaffarabad,34.37,73.4711,76.75,93,86,1.68,PK,1689804245
197,ilulissat,69.2167,-51.1,50.02,76,75,4.61,GL,1689804246
198,bel ombre,-4.6167,55.4167,77.85,88,13,7.61,SC,1689804246
199,es castell,39.8795,4.2854,79.48,94,20,11.5,ES,1689804246
200,kurchatov,51.6601,35.6521,54.01,82,75,6.24,RU,1689804246
201,christchurch,-43.5333,172.6333,48.94,91,100,14.97,NZ,1689804195
202,rio grande,-32.035,-52.0986,52.95,81,79,7.58,BR,1689804008
203,farafangana,-22.8167,47.8333,67.39,88,1,6.46,MG,1689804246
204,malango,-2.9627,119.9001,66.07,97,74,1.97,ID,1689804246
205,port alfred,-33.5906,26.891,53.35,70,81,11.41,ZA,1689804247
206,bad salzungen,50.8167,10.2333,61.2,94,65,4.03,DE,1689804247
207,tot'ma,59.9747,42.7642,58.42,97,100,0.47,RU,1689804247
208,haiku-pauwela,20.9219,-156.3051,79.5,93,75,16.11,US,1689804247
209,feodosiya,45.0333,35.3833,74.71,61,2,4.56,UA,1689804247
210,belyye vody,42.4167,69.8333,69.12,38,62,3.98,KZ,1689804247
211,bredasdorp,-34.5322,20.0403,45.75,76,56,2.15,ZA,1689804247
212,crane,31.3974,-102.3501,102.99,14,4,18.9,US,1689804247
213,nieuw amsterdam,5.8833,-55.0833,86.16,86,20,0.0,SR,1689804248
214,yarmouth,41.7057,-70.2286,82.15,76,0,8.05,US,1689804248
215,tura,25.5198,90.2201,75.61,94,85,5.73,IN,1689804248
216,sovetskaya gavan',48.9723,140.2878,66.31,88,60,2.62,RU,1689804248
217,florence,43.7667,11.25,80.28,64,0,1.14,IT,1689804000
218,chadron,42.8294,-102.9999,83.95,47,0,11.5,US,1689804248
219,kotido,2.9806,34.1331,70.21,64,55,4.34,UG,1689804248
220,slavutych,51.5196,30.7343,55.2,79,65,4.54,UA,1689803981
221,cabo san lucas,22.8909,-109.9124,97.9,52,20,12.66,MX,1689804249
222,fort st. john,56.2499,-120.8529,75.79,39,4,3.71,CA,1689804249
223,angatuba,-23.4897,-48.4128,55.42,95,100,12.03,BR,1689804249
224,heroica matamoros,25.8833,-97.5,96.75,47,0,21.85,MX,1689804249
225,kota kinabalu,5.9749,116.0724,76.98,94,40,8.05,MY,1689804052
226,smithers,54.7804,-127.1743,78.12,35,98,2.21,CA,1689804249
227,bridgewater,44.3835,-64.5155,81.1,77,74,5.99,CA,1689804249
228,nemuro,43.3236,145.575,57.63,96,73,8.43,JP,1689804052
229,porbandar,21.6422,69.6093,81.39,86,100,13.58,IN,1689804250
230,kendari,-3.945,122.4989,72.16,91,1,2.15,ID,1689804250
231,usogorsk,63.4106,48.6872,61.43,95,85,5.55,RU,1689804250
232,qamdo,31.1667,97.2333,40.03,78,78,4.03,CN,1689804250
233,carnarvon,-24.8667,113.6333,53.73,59,0,18.48,AU,1689804250
234,fortuna,40.5982,-124.1573,64.65,88,75,9.22,US,1689804250
235,kavieng,-2.5744,150.7967,78.89,82,100,8.59,PG,1689804250
236,barth,54.3635,12.7249,57.97,86,88,6.89,DE,1689804251
237,susuman,62.7833,148.1667,60.8,66,96,3.38,RU,1689804251
238,itamaraca,-7.7478,-34.8256,78.85,79,8,13.38,BR,1689804251
239,thompson,55.7435,-97.8558,81.16,33,40,5.35,CA,1689804251
240,jamestown,42.097,-79.2353,80.53,67,19,6.29,US,1689804057
241,likiep,9.8251,169.3107,83.84,77,88,16.6,MH,1689804251
242,freetown,8.484,-13.2299,77.63,88,100,8.55,SL,1689804251
243,lisala,2.15,21.5167,72.66,89,88,1.34,CD,1689804251
244,buzuluk,52.7807,52.2635,57.65,86,15,6.96,RU,1689803990
245,shibirghan,36.6676,65.7529,81.95,27,1,10.89,AF,1689804251
246,santa cruz del sur,20.7147,-77.9956,87.39,72,56,5.79,CU,1689804252
247,acarau,-2.8856,-40.12,79.34,79,16,15.95,BR,1689804252
248,george town,5.4112,100.3354,80.53,78,20,0.0,MY,1689804035
249,tantou,26.0314,119.5986,79.11,89,100,2.24,CN,1689804252
250,kotel'va,50.0686,34.7586,63.27,57,73,3.31,UA,1689804252
251,okhotsk,59.3833,143.3,64.45,67,88,7.02,RU,1689804252
252,novosergiyevka,52.0934,53.6528,61.95,96,100,9.51,RU,1689804252
253,newman,37.3138,-121.0208,98.94,7,1,7.54,US,1689804253
254,kamaishi,39.2667,141.8833,71.1,92,34,9.48,JP,1689804253
255,nishinoomote,30.7333,131.0,81.19,83,65,17.56,JP,1689804253
256,xining,36.6167,101.7667,52.32,87,98,2.89,CN,1689804253
257,diamantino,-14.4086,-56.4461,80.74,40,100,4.23,BR,1689804097
258,howrah,22.5892,88.3103,82.4,89,75,3.44,IN,1689804253
259,yongbyon,39.8133,125.8042,72.14,86,5,1.07,KP,1689804253
260,port mathurin,-19.6833,63.4167,74.5,64,65,23.31,MU,1689804253
261,khilok,51.3674,110.4676,50.47,67,1,2.35,RU,1689804253
262,fairbanks,64.8378,-147.7164,71.1,74,75,0.0,US,1689804253
263,enewetak,11.3474,162.3373,83.53,76,97,14.27,MH,1689804254
264,marsh harbour,26.5412,-77.0636,86.02,72,95,12.1,BS,1689804254
265,mosjoen,65.836,13.1908,53.71,81,100,2.3,NO,1689804254
266,genhe,50.7833,121.5167,57.58,94,0,3.24,CN,1689804254
267,rongelap,11.1635,166.8941,84.09,77,83,15.17,MH,1689804254
268,bomdila,27.25,92.4,58.55,90,18,5.64,IN,1689804254
269,mejit,10.2753,170.8646,82.81,83,100,19.77,MH,1689804254
270,ribas do rio pardo,-20.4431,-53.7592,73.94,59,0,7.85,BR,1689804255
271,balikpapan,-1.2675,116.8289,77.99,100,40,8.05,ID,1689804255
272,cidreira,-30.1811,-50.2056,57.67,68,79,15.12,BR,1689804255
273,las heras,-46.5419,-68.9359,39.06,86,100,21.61,AR,1689804255
274,lata,40.1629,-8.3327,57.92,98,4,2.35,PT,1689804255
275,albertina,-22.2008,-46.6158,59.36,85,63,3.15,BR,1689804255
276,ad-damazin,11.7891,34.3592,76.26,76,99,6.2,SD,1689804255
277,san patricio,28.017,-97.5169,101.12,48,0,18.16,US,1689804255
278,inirida,3.8653,-67.9239,79.03,92,33,1.72,CO,1689804255
279,pacific grove,36.6177,-121.9166,76.21,81,75,10.36,US,1689804256
280,hinton,53.4001,-117.5857,73.83,35,79,4.29,CA,1689804256
281,calama,-22.4667,-68.9333,63.37,4,40,7.14,CL,1689804149
282,zavodskoy,43.4597,132.2922,65.79,100,100,4.47,RU,1689804158
283,mount isa,-20.7333,139.5,60.57,82,100,0.0,AU,1689804256
284,vadso,70.0744,29.7487,49.08,87,75,19.57,NO,1689804256
285,cape coast,5.1053,-1.2466,76.91,90,88,12.1,GH,1689804256
286,saint-philippe,-21.3585,55.7679,69.39,90,49,11.21,RE,1689804256
287,pandan,14.0453,124.1694,78.85,89,100,1.39,PH,1689804256
288,along,28.1667,94.7667,75.22,93,48,0.98,IN,1689804257
289,hameenkyro,61.6391,23.1953,54.05,74,76,3.4,FI,1689804257
290,hirara,24.8,125.2833,82.72,73,14,5.77,JP,1689804257
291,kapa'a,22.0752,-159.319,80.92,80,100,18.41,US,1689804257
292,barra de santo antonio,-9.4047,-35.5072,78.08,80,28,11.23,BR,1689804257
293,sitka,57.0531,-135.33,60.69,72,100,5.75,US,1689804258
294,quelimane,-17.8786,36.8883,67.03,92,2,2.62,MZ,1689804258
295,buala,-8.145,159.5921,81.75,83,64,3.62,SB,1689804258
296,bedi,22.5,70.05,80.83,88,100,11.72,IN,1689804258
297,quellon,-43.1167,-73.6167,53.85,94,100,6.91,CL,1689804258
298,fort bragg,35.139,-79.006,92.91,68,75,6.91,US,1689804258
299,willmar,45.1219,-95.0433,87.82,40,40,11.5,US,1689804258
300,nguigmi,14.2495,13.1092,92.35,36,21,9.6,NE,1689804258
301,farebersviller,49.12,6.872,63.91,78,98,4.18,FR,1689804148
302,yardimli,38.9206,48.2372,62.65,79,26,3.91,AZ,1689804140
303,silale,55.4906,22.1814,49.8,93,12,4.79,LT,1689804017
304,sawmills,35.8248,-81.4745,85.55,67,20,5.75,US,1689804157
305,pont rouge,48.8833,-72.0825,65.43,67,75,12.26,CA,1689804259
306,swan hill,-35.3378,143.5544,42.35,66,97,12.08,AU,1689804259
307,baotou,40.6522,109.8222,74.98,33,44,5.23,CN,1689804117
308,copala,16.65,-98.9833,88.61,62,8,10.85,MX,1689804259
309,jayapura,-2.5333,140.7,78.19,92,97,4.97,ID,1689804259
310,samarinda,-0.5,117.15,73.26,100,86,2.82,ID,1689804259
311,xilin hot,43.9667,116.0333,65.75,81,13,5.23,CN,1689804259
312,brooks,50.5834,-111.8851,81.5,23,3,9.91,CA,1689804260
313,san sebastian de la gomera,28.0916,-17.1133,75.56,83,40,8.05,ES,1689804260
314,pariaman,-0.619,100.12,76.21,90,99,4.54,ID,1689804260
315,katima mulilo,-17.5,24.2667,55.89,34,0,5.95,NA,1689804260
316,mancio lima,-7.6142,-72.8958,75.09,93,90,2.57,BR,1689804260
317,berdigestyakh,62.0989,126.6992,51.51,95,100,2.66,RU,1689804260
318,hithadhoo,-0.6,73.0833,81.88,77,69,13.98,MV,1689804260
319,dhidhdhoo,6.8833,73.1,82.58,78,100,16.04,MV,1689804016
320,grand baie,-20.0182,57.5802,74.44,71,74,3.0,MU,1689804260
321,carutapera,-1.195,-46.02,75.76,93,21,6.67,BR,1689804261
322,gamay,12.3854,125.2979,76.6,93,97,3.78,PH,1689804261
323,kerikeri,-35.2268,173.9474,57.9,94,99,5.01,NZ,1689804261
324,luanda,-8.8368,13.2343,69.8,88,75,1.14,AO,1689804261
325,leticia,-4.2153,-69.9406,75.25,94,20,3.44,CO,1689804261
326,turpan,42.9333,89.1667,95.67,14,25,6.2,CN,1689804090
327,ridgecrest,35.6225,-117.6709,109.02,12,20,3.44,US,1689804261
328,buka,40.8108,69.1986,71.87,38,0,5.73,UZ,1689804261
329,broken hill,-31.95,141.4333,48.49,52,2,17.74,AU,1689804262
330,puerto deseado,-47.7503,-65.8938,41.67,71,85,10.02,AR,1689804126
331,caconda,-13.7333,15.0667,54.59,43,0,3.69,AO,1689804262
332,hitzacker,53.1525,11.0442,55.69,97,91,6.44,DE,1689804262
333,mount gambier,-37.8333,140.7667,48.9,70,98,15.9,AU,1689804262
334,tympaki,35.0729,24.7685,83.77,49,0,3.0,GR,1689804262
335,yuzhno-kurilsk,44.0306,145.8556,58.66,93,100,4.68,RU,1689804013
336,dunoon,55.947,-4.923,55.31,81,3,7.02,GB,1689804262
337,batouri,4.4333,14.3667,69.4,97,100,2.68,CM,1689804262
338,borgarnes,64.5383,-21.9206,54.81,75,95,4.03,IS,1689804263
339,huadian,42.9633,126.7478,69.46,93,10,2.57,CN,1689804037
340,ilomantsi,62.6716,30.9328,53.2,91,100,4.94,FI,1689804263
341,pocone,-16.2567,-56.6228,79.21,43,21,4.14,BR,1689804263
342,port-gentil,-0.7193,8.7815,73.15,90,100,12.59,GA,1689804066
343,cabedelo,-6.9811,-34.8339,77.67,79,6,16.89,BR,1689804263
344,firuzabad,28.8438,52.5707,82.17,15,0,4.99,IR,1689804263
345,sabha,27.0377,14.4283,86.18,22,0,4.21,LY,1689804263
346,minas de marcona,-15.2119,-75.1103,60.87,69,2,9.51,PE,1689804263
347,shizunai-furukawacho,42.3339,142.3669,67.14,90,52,2.1,JP,1689804264
348,zabid,14.1951,43.3152,91.6,39,61,9.08,YE,1689804264
349,kantagi,43.5264,68.5775,75.15,31,0,8.46,KZ,1689804264
350,madalena,41.2162,-8.3345,64.76,87,0,3.69,PT,1689804264
351,sibi,29.5448,67.8764,99.34,36,50,2.84,PK,1689804264
352,vostochnyy,55.8167,37.8667,57.13,76,75,11.01,RU,1689804264
353,dongxi,28.7614,106.6611,73.06,95,94,3.56,CN,1689804264
354,maqat,47.65,53.3167,82.78,40,86,13.82,KZ,1689804264
355,dompu,-8.5356,118.4622,69.8,95,16,2.24,ID,1689804265
356,basoko,1.2391,23.616,72.28,94,79,3.87,CD,1689804265
357,selfoss,63.9331,-20.9971,53.04,69,67,8.72,IS,1689804265
358,leninskoye,41.7589,69.3864,74.08,35,23,7.85,KZ,1689804265
359,solwezi,-12.1688,26.3894,57.27,48,0,3.65,ZM,1689804265
360,kingston,17.997,-76.7936,92.25,56,100,1.99,JM,1689804028
361,bonnyville,54.2668,-110.735,72.88,56,16,6.8,CA,1689804265
362,hoemul-li,41.4339,129.67,70.48,86,0,4.52,KP,1689804265
363,teodoro sampaio,-22.5325,-52.1675,67.21,72,14,8.55,BR,1689804265
364,salahonda,2.1019,-78.7217,82.63,80,29,13.31,CO,1689804266
365,odienne,9.51,-7.5692,73.98,94,55,3.91,CI,1689804266
366,chinde,26.8418,88.0763,68.92,84,87,3.94,NP,1689804266
367,lubny,50.0163,32.9969,60.82,59,59,0.96,UA,1689804266
368,moyynkum,44.2914,72.9469,79.65,55,99,6.73,KZ,1689804266
369,aytos,42.7,27.25,72.82,78,0,2.93,BG,1689804003
370,qaqortoq,60.7167,-46.0333,47.08,95,100,3.78,GL,1689804266
371,constantia,44.1833,28.65,75.88,73,4,14.74,RO,1689804184
372,ostbevern,52.05,7.85,62.49,77,20,3.44,DE,1689804267
373,dowlatabad,32.7998,51.6955,80.28,29,20,4.61,IR,1689804267
374,itaituba,-4.2761,-55.9836,84.85,40,15,2.42,BR,1689804001
375,sierra grande,-41.606,-65.3557,50.94,56,100,21.83,AR,1689804267
376,kitimat,54.0524,-128.6534,76.68,60,100,5.01,CA,1689804267
377,autazes,-3.5797,-59.1306,88.38,42,80,1.97,BR,1689804167
378,kapuskasing,49.4169,-82.4331,66.81,69,99,2.3,CA,1689804267
379,cody,44.5263,-109.0565,81.91,28,0,11.5,US,1689804267
380,dudinka,69.4058,86.1778,55.13,96,95,5.44,RU,1689804267
381,sylhet,24.5,91.6667,79.38,93,100,2.77,BD,1689804268
382,kalifornsky,60.4183,-151.29,61.14,77,100,12.66,US,1689804268
383,deschutes river woods,43.9915,-121.3584,92.19,19,0,11.5,US,1689804268
384,peace river,56.2501,-117.286,75.4,52,72,10.87,CA,1689804268
385,chibougamau,49.9168,-74.3659,58.62,77,100,5.41,CA,1689804268
386,lower hutt,-41.2167,174.9167,55.31,95,75,3.44,NZ,1689804024
387,vernal,40.4555,-109.5287,90.72,30,0,15.01,US,1689804268
388,khash,28.2211,61.2158,81.97,22,96,3.49,IR,1689804268
389,tamarin,-20.3256,57.3706,74.52,81,86,13.67,MU,1689804268
390,choibalsan,48.0667,114.5,62.55,54,94,7.43,MN,1689804038
391,soe,-9.8607,124.284,63.45,91,66,3.31,ID,1689804269
392,savanna-la-mar,18.219,-78.1332,83.46,82,100,1.52,JM,1689804269
393,sendhwa,21.6833,75.1,77.2,92,96,6.29,IN,1689804269
394,verkhnevilyuysk,63.4453,120.3167,58.06,85,100,5.37,RU,1689804269
395,luderitz,-26.6481,15.1594,55.8,61,67,24.52,NA,1689804269
396,salekhard,66.53,66.6019,63.64,91,99,2.46,RU,1689804234
397,dakhla,23.6848,-15.958,69.89,88,9,26.02,EH,1689804187
398,hammerfest,70.6634,23.6821,46.85,93,75,16.11,NO,1689804269
399,alofi,-19.0595,-169.9187,75.09,53,40,16.11,NU,1689804269
400,al jawf,29.5,38.75,86.22,14,0,7.63,SA,1689804270
401,carora,10.1755,-70.0827,93.31,34,10,20.07,VE,1689804270
402,muan,34.9897,126.4714,73.98,87,80,2.46,KR,1689804270
403,bayji,34.9311,43.487,92.52,8,0,9.73,IQ,1689804270
404,rio brilhante,-21.8019,-54.5464,70.88,68,1,6.22,BR,1689804038
405,tolanaro,-25.0319,46.9987,66.09,87,0,6.11,MG,1689804270
406,raiwala bara,30.0167,78.2167,80.89,78,99,3.29,IN,1689804270
407,sumenep,-7.0167,113.8667,75.13,71,2,7.09,ID,1689804270
408,samfya,-11.3649,29.5565,62.01,49,8,8.08,ZM,1689804270
409,batarasa,8.6617,117.6222,78.82,83,92,1.63,PH,1689804271
410,chandbali,20.7833,86.7667,82.54,86,93,4.34,IN,1689804271
411,labrador city,52.9463,-66.9114,66.2,54,91,10.22,CA,1689804271
412,chesma,53.8111,60.6533,58.08,89,6,7.99,RU,1689804123
413,de queen,34.0379,-94.3413,93.33,55,0,6.91,US,1689804271
414,timizart,36.8,4.2667,84.15,29,16,3.62,DZ,1689804271
415,thunder bay,48.4001,-89.3168,53.42,99,100,4.23,CA,1689804093
416,polyarnyy,69.1989,33.4478,53.31,96,100,12.24,RU,1689804112
417,kolonia town,6.964,158.206,87.8,74,75,3.44,FM,1689804271
418,korla,41.7597,86.1469,85.46,22,4,7.63,CN,1689804271
419,gaspe,48.8334,-64.4819,73.35,88,69,1.19,CA,1689804272
420,stephenville,32.2207,-98.2023,107.76,13,0,8.05,US,1689804272
421,santa ana,33.7456,-117.8678,104.41,50,20,11.5,US,1689804272
422,riverside,33.7333,-116.0508,111.09,17,0,5.75,US,1689804272
423,duong dong,10.2167,103.9667,77.0,94,75,11.5,VN,1689804218
424,markovo,57.3206,107.0881,57.43,72,71,1.23,RU,1689804272
425,vredendal,-31.6683,18.5012,49.32,55,0,7.7,ZA,1689804272
426,portland,45.5234,-122.6762,97.47,31,75,10.36,US,1689804273
427,gadzhiyevo,69.2551,33.3362,52.57,96,100,14.27,RU,1689804273
428,lebu,-37.6167,-73.65,54.9,96,100,12.19,CL,1689804273
429,turtas,58.9417,69.1325,59.86,97,53,4.92,RU,1689803975
430,lospalos,-8.5186,127.0025,68.07,92,25,4.81,TL,1689804273
431,dwarka,22.2394,68.9678,82.74,81,100,12.41,IN,1689804273
432,faqirwali,29.4663,73.034,94.5,48,0,6.6,PK,1689804273
433,ust-nera,64.5667,143.2,70.25,52,81,3.4,RU,1689804274
434,masterton,-40.9597,175.6575,51.89,79,76,2.84,NZ,1689804274
435,castelli,-25.9468,-60.6195,60.33,37,57,4.74,AR,1689804274
436,taguatinga,-12.3857,-46.5711,80.65,19,46,7.36,BR,1689804274
437,wuwei,37.9281,102.6414,65.68,49,26,5.68,CN,1689804274
438,magadan,59.5667,150.8,63.77,69,11,6.13,RU,1689804186
439,kill devil hills,36.0307,-75.676,84.2,84,100,10.36,US,1689804274
440,hede,33.7681,120.2517,75.81,93,100,5.12,CN,1689804274
441,homer,59.6425,-151.5483,60.69,79,100,0.0,US,1689804275
442,agapovka,53.2973,59.1348,58.96,87,50,5.93,RU,1689804183
443,msanga,-6.05,36.0333,62.56,76,11,5.55,TZ,1689804275
444,kastellaun,50.0667,7.45,63.43,67,0,6.91,DE,1689804275
445,vicuna,-30.0319,-70.7081,71.76,19,100,1.97,CL,1689804275
446,comodoro rivadavia,-45.8667,-67.5,53.46,58,0,16.11,AR,1689803984
447,holualoa,19.6228,-155.9522,84.04,68,75,10.36,US,1689804275
448,konarka,19.9,86.1167,81.0,84,91,2.33,IN,1689804275
449,labuan bajo,-8.4964,119.8877,72.46,86,18,6.35,ID,1689804275
450,kanniyakumari,8.0833,77.5667,78.53,86,91,16.98,IN,1689804185
451,kavaratti,10.5669,72.642,82.27,79,100,21.85,IN,1689804276
452,chulym,55.0997,80.9572,61.02,63,67,7.36,RU,1689804276
453,calca,-13.3333,-71.95,67.35,59,62,7.96,PE,1689804276
454,lintong,34.378,109.2089,74.75,77,27,4.7,CN,1689804089
455,mizdah,31.4451,12.9801,80.04,39,0,5.17,LY,1689804276
456,onguday,50.75,86.15,57.38,66,26,3.36,RU,1689804276
457,luuq,3.7938,42.5445,78.75,57,86,21.43,SO,1689804276
458,chalatenango,14.0333,-88.9333,91.58,56,61,2.66,SV,1689804276
459,falmouth,50.1544,-5.0711,59.67,85,20,6.91,GB,1689804191
460,ningchegu,39.1589,117.6625,78.82,59,92,3.98,CN,1689804277
461,perrysburg,41.557,-83.6272,84.72,48,100,5.75,US,1689804277
462,san luis de la loma,17.2706,-100.8939,89.47,63,62,8.21,MX,1689804277
463,nadi,-17.8,177.4167,80.6,65,40,3.44,FJ,1689804277
464,bata,1.8639,9.7658,77.83,85,69,11.88,GQ,1689804061
465,horta,38.5333,-28.6333,71.02,87,100,3.0,PT,1689804254
466,honefoss,60.168,10.2565,56.91,79,66,2.68,NO,1689804277
467,kramfors,62.9316,17.7765,53.4,82,75,0.0,SE,1689804277
468,yerofey pavlovich,53.9667,121.9667,52.47,87,15,3.6,RU,1689804277
469,st. paul,44.9444,-93.0933,91.92,43,0,12.66,US,1689804277
470,palencia,42.4167,-4.5,62.92,87,0,13.02,ES,1689804278
471,benguela,-12.5763,13.4055,65.91,87,53,3.87,AO,1689804278
472,kidal,18.4411,1.4078,97.57,17,51,10.56,ML,1689804278
473,hjo,58.3013,14.2878,53.58,85,41,8.86,SE,1689804010
474,kunda,25.7167,81.5167,87.26,65,38,6.55,IN,1689804176
475,urangan,-25.3,152.9,62.87,66,1,7.25,AU,1689804278
476,chiredzi,-21.05,31.6667,59.04,42,0,2.84,ZW,1689804278
477,vila franca do campo,37.7167,-25.4333,72.01,81,95,1.68,PT,1689804278
478,plettenberg bay,-34.0527,23.3716,50.65,74,80,3.89,ZA,1689804278
479,fort abbas,29.1925,72.8536,96.13,46,5,8.68,PK,1689804278
480,villa regina,-39.1,-67.0667,53.78,53,100,10.47,AR,1689804279
481,port-vila,-17.7338,168.3219,72.21,90,100,12.44,VU,1689804279
482,condado,21.8767,-79.8403,89.2,64,58,4.74,CU,1689804279
483,lakewood,39.7047,-105.0814,85.62,39,66,11.01,US,1689804279
484,kudahuvadhoo,2.6708,72.8944,82.45,74,26,7.34,MV,1689804279
485,ad darb,17.7229,42.2526,92.03,42,68,7.47,SA,1689804279
486,lamar,33.6668,-95.5836,100.98,59,0,13.8,US,1689804279
487,betioky,-23.7167,44.3833,65.89,75,74,2.26,MG,1689804279
488,tamanrasset,22.785,5.5228,84.11,11,0,4.61,DZ,1689804279
489,mar del plata,-38.0023,-57.5575,46.94,75,100,7.0,AR,1689804158
490,santiago de cao,-7.9589,-79.2392,71.73,83,75,9.22,PE,1689804203
491,hailin,44.5833,129.4167,67.86,91,3,1.79,CN,1689804128
492,trujillo,-8.116,-79.03,71.76,80,37,9.71,PE,1689804149
493,guadalupe y calvo,26.1,-106.9667,82.92,28,22,4.9,MX,1689804280
494,wanning,18.8003,110.3967,80.31,91,100,4.14,CN,1689804280
495,lerwick,60.1545,-1.1494,51.8,86,100,20.09,GB,1689804071
496,takoradi,4.8845,-1.7554,76.28,92,84,8.59,GH,1689804153
497,salalah,17.0151,54.0924,78.89,100,100,9.22,OM,1689804280
498,manismata,-2.4667,111.0333,72.57,99,96,2.89,ID,1689804280
499,dondaicha,21.3333,74.5667,79.65,90,95,14.85,IN,1689804280
500,pimentel,-6.8367,-79.9342,73.69,78,40,10.36,PE,1689804281
501,saldanha,-33.0117,17.9442,51.04,68,0,18.25,ZA,1689804281
502,usinsk,65.9939,57.5281,61.39,83,77,2.71,RU,1689804281
503,turinsk,58.0458,63.696,57.24,97,56,5.59,RU,1689804281
504,east ballina,-28.8667,153.5833,49.8,75,3,8.57,AU,1689804281
505,blenheim,-41.516,173.9528,51.67,64,73,3.47,NZ,1689804281
506,westport,41.1415,-73.3579,82.65,71,40,11.5,US,1689804281
507,sinabang,2.4803,96.3801,76.48,93,100,10.11,ID,1689804281
508,tocopilla,-22.092,-70.1979,66.58,70,51,4.32,CL,1689804281
509,manturovo,58.3353,44.7619,55.87,96,83,5.21,RU,1689804120
510,sarangani,5.4033,125.4636,82.38,77,52,13.82,PH,1689804282
511,ar ruways,24.1103,52.7306,89.26,62,61,3.24,AE,1689804282
512,buchanan,5.8808,-10.0467,75.99,92,100,7.11,LR,1689804282
513,mata-utu,-13.2816,-176.1745,81.43,81,60,17.43,WF,1689804282
514,arteche,12.2645,125.4048,76.59,92,98,4.25,PH,1689804282
515,jumla,29.2747,82.1838,64.06,97,98,1.39,NP,1689804282
516,sechura,-5.5569,-80.8222,77.68,66,7,18.86,PE,1689804282
517,bethanie,-26.4833,17.15,45.36,49,4,5.64,NA,1689804030
518,kamensk-ural'skiy,56.4185,61.9329,58.5,90,11,4.25,RU,1689804025
519,tsiombe,-25.3,45.4833,65.3,83,0,4.45,MG,1689804283
520,igarka,67.4667,86.5833,57.96,85,97,7.7,RU,1689804283
521,ghadamis,30.1337,9.5007,94.75,16,0,17.74,LY,1689804046
522,humaita,-7.5061,-63.0208,86.2,39,8,3.2,BR,1689804283
523,cascais,38.6979,-9.4215,68.16,75,0,18.99,PT,1689804283
524,vila velha,-20.3297,-40.2925,73.35,94,100,8.05,BR,1689804283
525,klaksvik,62.2266,-6.589,45.52,86,100,23.26,FO,1689804244
526,luau,-10.7073,22.2247,63.23,34,0,4.92,AO,1689804283
527,fort william,56.8165,-5.1121,49.3,91,80,3.56,GB,1689804283
528,al bardiyah,31.7561,25.0865,79.86,68,0,6.53,LY,1689804283
529,la sarre,48.8002,-79.1996,67.69,57,89,3.0,CA,1689804284
530,juan de acosta,10.8281,-75.0334,96.39,69,23,14.25,CO,1689804284
531,yugorsk,61.3133,63.3319,60.12,93,83,5.41,RU,1689804256
532,sisimiut,66.9395,-53.6735,45.59,97,100,9.46,GL,1689804048
533,sheregesh,52.9209,87.9869,56.77,80,14,4.05,RU,1689804284
534,santa maria da vitoria,-13.3947,-44.1886,79.11,25,9,7.81,BR,1689804113
535,tual,-5.6667,132.75,79.38,80,36,19.93,ID,1689804284
536,afua,-0.1567,-50.3867,79.0,81,30,6.17,BR,1689804284
537,thinadhoo,0.5333,72.9333,81.66,77,22,8.32,MV,1689804284
538,ballycastle,55.2044,-6.243,56.53,82,6,7.34,GB,1689804284
539,beaufort west,-32.3567,22.583,40.5,79,82,9.98,ZA,1689804285
540,port saint john's,-31.6229,29.5448,55.62,71,87,13.69,ZA,1689804266
541,talcahuano,-36.7167,-73.1167,55.11,91,80,13.51,CL,1689804038
542,malabar,-33.9667,151.25,44.31,82,0,10.36,AU,1689804285
543,taro,-8.3862,115.28,66.2,78,70,5.3,ID,1689804285
544,kribi,2.95,9.9167,76.93,90,79,9.01,CM,1689804285
545,businga,3.3333,20.8833,72.73,95,94,1.25,CD,1689804285
546,sanming,26.2486,117.6186,76.5,95,100,2.04,CN,1689804285
547,gebeit,21.0667,36.3167,87.98,18,14,2.98,SD,1689804285
548,oranjemund,-28.55,16.4333,52.56,65,7,19.19,NA,1689804285
549,ibrany,48.1333,21.7167,65.01,93,50,5.55,HU,1689804286
550,dawesville,30.9224,-84.0091,96.67,52,0,3.0,US,1689804286
551,bani,18.2833,-70.3333,85.44,71,98,12.77,DO,1689804286
552,ola,59.5833,151.2833,62.71,72,10,3.33,RU,1689804286
553,hemsby,52.6971,1.6918,57.97,87,20,5.68,GB,1689804286
554,remetea,46.7833,25.45,61.43,89,26,2.68,RO,1689804286
555,mitsamiouli,-11.3847,43.2844,77.18,73,4,4.83,KM,1689804286
556,ponta delgada,37.7333,-25.6667,72.32,78,40,2.3,PT,1689804217
557,paita,-5.0892,-81.1144,74.21,78,2,19.28,PE,1689804286
558,rupert,42.6191,-113.6772,89.55,17,0,4.61,US,1689804286
559,ludington,43.9553,-86.4526,78.89,50,0,5.75,US,1689804287
560,ust'-kut,56.7938,105.7672,56.71,70,15,1.32,RU,1689804287
561,puerto del carmen,28.9231,-13.6658,74.71,73,20,20.71,ES,1689804287
562,belo sur tsiribihina,-19.7,44.55,71.06,74,100,2.19,MG,1689804287
563,kumagunnam,13.1551,10.6342,90.05,41,86,14.88,NG,1689804287
564,raduzhny,62.0961,77.475,65.23,71,73,8.48,RU,1689804046
565,revda,56.801,59.9303,55.89,96,57,3.33,RU,1689804036
566,altamira,-3.2033,-52.2064,80.83,52,13,1.83,BR,1689804091
567,belaguntha,19.8833,84.65,79.38,90,90,3.24,IN,1689804287
568,aripuana,-9.1667,-60.6333,83.23,39,49,2.46,BR,1689804287
569,lalibela,12.0333,39.0333,61.11,76,91,1.95,ET,1689804287
570,port douglas,-16.4833,145.4667,71.67,77,99,12.17,AU,1689804288
571,ngaoundere,7.3167,13.5833,66.22,93,99,2.46,CM,1689804288
572,lansdowne,39.9382,-75.2719,84.11,74,75,3.44,US,1689804288
573,marica,-22.9194,-42.8186,67.91,88,100,16.96,BR,1689804288
574,sola,-13.8833,167.55,79.2,87,100,17.98,VU,1689804288
575,port shepstone,-30.7414,30.455,58.32,60,72,21.92,ZA,1689804288
576,puerto penasco,31.3167,-113.5333,89.91,77,1,7.0,MX,1689804288
577,sarkand,45.41,79.9186,76.15,40,86,18.39,KZ,1689804288
578,makar'yev,57.8797,43.8069,57.15,97,95,8.23,RU,1689804289
579,castillos,-34.1667,-53.8333,47.41,84,100,7.43,UY,1689804289
580,papao,-17.75,-149.55,74.88,96,49,23.13,PF,1689804289
581,eraan,9.0629,117.7016,78.75,82,65,4.18,PH,1689804289
582,lodja,-3.4833,23.4333,81.66,33,93,0.83,CD,1689804289
583,ballina,-28.8667,153.5667,49.78,75,3,7.9,AU,1689804289
584,burgum,53.1924,5.9901,60.78,93,100,1.14,NL,1689804029
585,ibirama,-27.0569,-49.5178,54.66,98,100,1.77,BR,1689804289
586,hafar al-batin,28.4328,45.9708,90.81,10,0,7.7,SA,1689804289
587,joshimath,30.5667,79.5667,71.94,93,99,1.14,IN,1689804289
588,salacgriva,57.7536,24.3581,56.95,83,94,11.39,LV,1689804290
